City_ID,City,Lat,Lng,Max Temp,Humidity,Cloudiness,Wind Speed,Country,Date
0,castillos,-34.1667,-53.8333,13.14,93,5,3.11,UY,1684281045
1,port-aux-francais,-49.35,70.2167,7.88,94,100,15.88,TF,1684281014
2,punta arenas,-53.15,-70.9167,5.06,81,0,4.63,CL,1684280757
3,west island,-12.1568,96.8225,26.99,74,40,4.12,CC,1684281007
4,bethel,41.3712,-73.414,23.93,36,0,2.06,US,1684281035
5,ribeira grande,38.5167,-28.7,19.32,92,96,0.89,PT,1684281026
6,bilibino,68.0546,166.4372,-0.38,83,71,2.67,RU,1684280955
7,edinburgh of the seven seas,-37.0676,-12.3116,16.86,97,100,6.03,SH,1684281004
8,tiksi,71.6872,128.8694,-10.15,92,91,2.77,RU,1684281030
9,college,64.8569,-147.8028,20.97,23,75,4.63,US,1684281049
10,albany,42.6001,-73.9662,22.23,33,100,0.45,US,1684280926
11,gorno-altaysk,51.9561,85.955,9.18,89,96,2.09,RU,1684281110
12,frantiskovy lazne,50.1203,12.3517,7.61,80,89,3.54,CZ,1684281110
13,port mathurin,-19.6833,63.4167,25.73,74,2,4.9,MU,1684281006
14,olonkinbyen,70.9221,-8.7187,-0.69,85,64,8.68,SJ,1684280938
15,adamstown,-25.066,-130.1015,23.48,76,24,3.29,PN,1684280853
16,salem,11.65,78.1667,29.08,58,100,1.57,IN,1684280928
17,barcelos,41.5388,-8.6151,19.36,54,58,2.86,PT,1684281114
18,bredasdorp,-34.5322,20.0403,12.55,79,81,3.4,ZA,1684281006
19,bela,25.9333,81.9833,31.66,22,66,1.8,IN,1684281114
20,hermanus,-34.4187,19.2345,13.22,91,90,1.78,ZA,1684280814
21,island harbour,50.724,-1.2758,11.29,82,8,0.45,GB,1684281114
22,aykhal,66.0,111.5,0.34,91,100,4.0,RU,1684281114
23,qaqortoq,60.7167,-46.0333,2.19,94,100,2.69,GL,1684281045
24,puerto ayora,-0.7393,-90.3518,26.42,89,76,3.13,EC,1684281025
25,semnan,35.5729,53.3971,12.5,43,13,0.4,IR,1684281115
26,portel,-1.9356,-50.8211,24.65,93,100,0.66,BR,1684281115
27,yellowknife,62.456,-114.3525,18.29,29,20,7.72,CA,1684281054
28,keflavik,64.0049,-22.5624,8.95,93,100,9.26,IS,1684281116
29,fortuna,40.5982,-124.1573,19.4,84,0,6.17,US,1684280961
30,ginir,7.1333,40.7,14.37,85,87,1.96,ET,1684281117
31,nagqu,31.5,92.0,0.47,70,94,3.49,CN,1684281117
32,puerto natales,-51.7236,-72.4875,3.97,94,74,1.33,CL,1684280889
33,sinabang,2.4803,96.3801,27.36,79,69,1.17,ID,1684281117
34,cabrobo,-8.5142,-39.31,27.0,60,99,5.27,BR,1684281117
35,isafjordur,66.0755,-23.124,6.14,90,95,5.25,IS,1684280954
36,vitez,44.1544,17.7903,10.81,94,80,1.07,BA,1684281118
37,east london,-33.0153,27.9116,15.59,76,40,3.84,ZA,1684281118
38,enniscorthy,52.5008,-6.5578,10.82,96,63,2.14,IE,1684281118
39,crane,31.3974,-102.3501,25.57,43,100,3.58,US,1684281005
40,jamestown,42.097,-79.2353,19.8,30,75,4.63,US,1684280956
41,lazaro cardenas,17.9583,-102.2,30.14,60,0,4.21,MX,1684280877
42,hithadhoo,-0.6,73.0833,28.36,79,87,7.7,MV,1684281060
43,waitangi,-43.9535,-176.5597,15.46,85,65,2.68,NZ,1684281005
44,margaret river,-33.95,115.0667,12.84,68,0,3.63,AU,1684281024
45,weno,7.4515,151.8468,27.97,89,100,2.06,FM,1684281119
46,badger,64.8,-147.5333,20.93,24,75,4.63,US,1684281035
47,portage la prairie,49.9728,-98.2926,24.96,36,100,4.12,CA,1684280967
48,berdigestyakh,62.0989,126.6992,2.07,98,100,3.24,RU,1684281120
49,luau,-10.7073,22.2247,17.15,55,9,1.61,AO,1684281120
50,markaz-e hukumat-e darweshan,31.1323,64.1934,27.36,12,47,6.58,AF,1684281123
51,norwich,52.6278,1.2983,10.57,82,20,1.54,GB,1684281123
52,san fernando del valle de catamarca,-28.4696,-65.7852,24.87,56,100,3.58,AR,1684281049
53,st. john's,47.5649,-52.7093,10.66,76,75,6.17,CA,1684281036
54,karratha,-20.7377,116.8463,21.7,34,5,2.72,AU,1684281069
55,san antonio de pale,-1.4014,5.6325,27.25,83,96,6.4,GQ,1684281124
56,bhimunipatnam,17.8833,83.4333,29.73,90,85,3.05,IN,1684281125
57,ushuaia,-54.8,-68.3,6.81,61,20,5.66,AR,1684280748
58,hadibu,12.65,54.0333,29.03,77,21,2.61,YE,1684281126
59,reguiba,33.5639,6.7033,22.03,35,0,3.09,DZ,1684281127
60,yelizovo,53.1873,158.3805,10.08,61,0,5.0,RU,1684281127
61,bikenibeu village,1.3673,173.1241,30.98,79,20,3.6,KI,1684281127
62,agat village,13.3886,144.6585,30.76,76,20,6.17,GU,1684281127
63,setubal,38.5244,-8.8882,19.92,70,53,4.26,PT,1684281127
64,georgetown,5.4112,100.3354,28.96,89,40,2.06,MY,1684280923
65,whitehorse,60.7161,-135.0538,23.39,16,20,3.6,CA,1684280718
66,vallam,10.7167,79.0833,28.03,77,91,2.95,IN,1684281128
67,longyearbyen,78.2186,15.6401,-4.09,86,75,0.51,SJ,1684281086
68,blackmans bay,-43.0167,147.3167,9.29,78,99,1.34,AU,1684280949
69,mpongwe,-13.5091,28.155,18.56,57,49,2.99,ZM,1684281128
70,albertina,-22.2008,-46.6158,10.66,78,0,1.29,BR,1684281128
71,ad dabbah,18.05,30.95,30.02,10,0,3.99,SD,1684281128
72,tocopilla,-22.092,-70.1979,19.08,76,21,2.98,CL,1684281129
73,dehui,44.5333,125.7,14.35,29,100,3.38,CN,1684281129
74,port elizabeth,-33.918,25.5701,15.17,91,0,5.14,ZA,1684281049
75,nyurba,63.2842,118.3319,6.81,58,78,2.86,RU,1684281129
76,benjamin constant,-4.3831,-70.0311,26.07,94,75,1.54,BR,1684281129
77,reggane,26.7158,0.1714,27.57,11,2,5.27,DZ,1684281130
78,awjilah,29.1081,21.2869,17.19,61,0,3.68,LY,1684281130
79,manado,1.487,124.8455,25.43,94,40,1.54,ID,1684281133
80,susuman,62.7833,148.1667,7.26,56,90,6.42,RU,1684281066
81,kismayo,-0.3582,42.5454,26.51,84,19,6.16,SO,1684281134
82,naze,28.3667,129.4833,22.51,62,96,5.82,JP,1684281134
83,letlhakeng,-24.0944,25.0298,14.14,87,3,3.59,BW,1684281135
84,horta,38.5333,-28.6333,18.9,92,96,0.89,PT,1684281136
85,iskateley,67.6803,53.1512,4.38,97,61,3.96,RU,1684281136
86,wailua homesteads,22.0669,-159.378,25.44,70,100,5.66,US,1684281055
87,leh,34.1667,77.5833,4.59,46,17,1.48,IN,1684281121
88,talnakh,69.4865,88.3972,-9.48,92,43,1.13,RU,1684281067
89,juan griego,11.0817,-63.9655,25.65,89,96,4.61,VE,1684281004
90,n'zeto,-7.2312,12.8666,24.85,91,75,3.28,AO,1684281137
91,cadale,2.7603,46.3222,26.46,89,71,7.48,SO,1684281137
92,meadow lake,34.8014,-106.5436,29.05,30,14,4.06,US,1684281137
93,avarua,-21.2078,-159.775,22.03,73,100,2.06,CK,1684280877
94,waddan,29.1614,16.139,21.33,24,0,3.96,LY,1684281138
95,montepuez,-13.1256,38.9997,16.45,94,51,1.73,MZ,1684281138
96,changchun,43.88,125.3228,10.98,53,100,0.1,CN,1684281138
97,hamilton,39.1834,-84.5333,17.92,83,20,3.09,US,1684281029
98,armacao de buzios,-22.7469,-41.8817,21.09,78,3,8.85,BR,1684281138
99,xining,36.6167,101.7667,10.32,66,100,0.75,CN,1684281139
100,grytviken,-54.2811,-36.5092,0.05,88,81,5.8,GS,1684280846
101,guamal,9.1433,-74.2238,25.11,92,100,0.51,CO,1684280953
102,aver-o-mar,41.4078,-8.7812,19.58,77,0,0.0,PT,1684281139
103,maasim,5.8575,125.0061,28.32,75,95,1.46,PH,1684281139
104,oras,12.1406,125.4397,28.22,79,95,2.61,PH,1684281140
105,tolanaro,-25.0319,46.9987,21.04,88,40,4.12,MG,1684281056
106,ghadamis,30.1337,9.5007,20.14,26,0,3.43,LY,1684281039
107,anadyr,64.75,177.4833,-2.72,74,0,6.0,RU,1684280945
108,kavieng,-2.5744,150.7967,28.16,78,99,3.6,PG,1684281143
109,daru,-9.0763,143.2092,27.31,85,91,3.25,PG,1684281038
110,ilulissat,69.2167,-51.1,1.01,75,15,4.12,GL,1684281040
111,hilo,19.7297,-155.09,29.6,80,75,4.63,US,1684280909
112,thompson,55.7435,-97.8558,9.09,53,75,3.09,CA,1684281008
113,vargarda,58.0371,12.8091,10.54,92,100,3.39,SE,1684281144
114,chulakkurgan,43.765,69.1814,17.36,70,87,1.18,KZ,1684281144
115,as sulayyil,20.4607,45.5779,33.14,18,71,3.57,SA,1684281144
116,igarka,67.4667,86.5833,-3.22,84,30,4.83,RU,1684281144
117,hawaiian paradise park,19.5933,-154.9731,25.73,76,75,4.63,US,1684281079
118,greymouth,-42.4667,171.2,13.69,79,66,4.48,NZ,1684280862
119,severo-yeniseyskiy,60.3725,93.0408,-1.15,97,100,5.15,RU,1684281009
120,maloye ganyushkino,46.6,49.2667,14.9,67,73,3.15,KZ,1684281145
121,saipan,15.1355,145.701,30.39,100,40,4.63,MP,1684280937
122,kodiak,57.79,-152.4072,7.59,65,21,2.67,US,1684281039
123,funafuti,-8.5243,179.1942,33.0,75,40,5.14,TV,1684281145
124,utrik,11.2278,169.8474,27.51,75,74,7.05,MH,1684281054
125,san agustin de valle fertil,-30.6335,-67.4682,19.22,64,41,1.76,AR,1684281146
126,papatowai,-46.5619,169.4708,8.84,90,100,3.17,NZ,1684281043
127,sao gabriel da cachoeira,-0.1303,-67.0892,22.75,97,96,0.47,BR,1684281037
128,rio grande,-32.035,-52.0986,13.06,86,0,4.15,BR,1684281146
129,ojinaga,29.5667,-104.4167,29.53,34,0,0.0,MX,1684281146
130,dunedin,-45.8742,170.5036,12.11,83,97,1.34,NZ,1684281069
131,brookings,44.3114,-96.7984,24.5,40,0,4.12,US,1684280853
132,kushiro,42.975,144.3747,11.53,82,40,2.57,JP,1684281147
133,keelung,25.1283,121.7419,26.94,78,50,1.38,TW,1684281147
134,anse-bertrand,16.4721,-61.5078,26.9,100,59,5.92,GP,1684281147
135,semirara,12.0697,121.3986,29.09,74,95,4.13,PH,1684281148
136,kolyshley,52.7005,44.5367,9.83,86,69,3.48,RU,1684281148
137,york beach,43.1717,-70.6089,23.51,37,63,2.24,US,1684281148
138,sosnovka,56.255,51.2842,10.39,68,52,1.55,RU,1684281148
139,ancud,-41.8697,-73.8203,12.11,75,91,8.28,CL,1684280855
140,varallo,45.8139,8.259,12.25,75,91,3.15,IT,1684281135
141,dalandzadgad,43.5708,104.425,11.87,31,0,2.84,MN,1684281149
142,konarka,19.9,86.1167,27.22,89,59,5.3,IN,1684281149
143,fale old settlement,-9.3852,-171.2468,28.99,75,94,5.09,TK,1684281066
144,iqaluit,63.7506,-68.5145,-0.15,59,100,7.72,CA,1684281058
145,bilajer,40.5681,50.0378,17.9,48,0,3.09,AZ,1684281149
146,tarko-sale,64.9225,77.785,-2.03,90,100,6.36,RU,1684281149
147,petropavlovsk-kamchatsky,53.0452,158.6483,9.33,62,0,5.0,RU,1684281004
148,san patricio,28.017,-97.5169,28.24,73,47,3.28,US,1684281004
149,northam,51.0333,-4.2167,9.66,90,19,2.31,GB,1684281150
150,saint-francois,46.4154,3.9054,7.04,81,0,2.06,FR,1684281097
151,bayanaul,50.7889,75.6956,10.01,59,49,0.86,KZ,1684281150
152,laguna,38.421,-121.4238,35.73,21,0,2.57,US,1684281153
153,san martin,-33.081,-68.4681,21.3,51,0,4.28,AR,1684281153
154,tshabong,-26.05,22.45,14.71,32,14,2.24,BW,1684281153
155,pacific grove,36.6177,-121.9166,25.91,81,0,4.12,US,1684281037
156,gracemere,-23.4333,150.45,21.95,46,1,3.09,AU,1684281154
157,uturoa,-16.7333,-151.4333,27.38,70,27,3.4,PF,1684281048
158,baruun-urt,46.6806,113.2792,8.66,34,12,0.46,MN,1684281154
159,chonchi,-42.6128,-73.8092,8.95,85,62,2.65,CL,1684281154
160,manismata,-2.4667,111.0333,25.44,83,32,1.36,ID,1684281154
161,tazacorte,28.629,-17.9293,20.54,80,100,7.72,ES,1684281155
162,taro,-8.3862,115.28,21.03,79,41,0.53,ID,1684281155
163,port douglas,-16.4833,145.4667,25.13,80,83,3.26,AU,1684281155
164,kapuskasing,49.4169,-82.4331,0.05,80,100,3.09,CA,1684280936
165,fort bragg,35.139,-79.006,29.91,50,0,5.66,US,1684281046
166,darjiling,27.0333,88.2667,10.08,76,14,2.58,IN,1684281155
167,midelt,32.6852,-4.7451,16.56,34,100,5.54,MA,1684281156
168,stayton,44.8007,-122.7945,28.51,43,10,2.06,US,1684281099
169,belyy yar,53.6039,91.3903,9.94,66,0,6.0,RU,1684281156
170,tura,25.5198,90.2201,20.51,94,0,2.19,IN,1684281058
171,kailua-kona,19.6406,-155.9956,27.98,76,40,5.66,US,1684281156
172,acarau,-2.8856,-40.12,25.68,88,85,4.92,BR,1684281157
173,sabha,27.0377,14.4283,20.02,20,0,1.63,LY,1684281157
174,labytnangi,66.6572,66.4183,-4.68,90,69,1.17,RU,1684281085
175,udachny,66.4167,112.4,1.92,80,100,5.08,RU,1684281157
176,peace river,56.2501,-117.286,21.17,24,20,4.63,CA,1684281157
177,kayangel,8.0823,134.7173,28.29,74,100,1.6,PW,1684281157
178,invercargill,-46.4,168.35,8.89,91,100,3.7,NZ,1684281026
179,carnarvon,-24.8667,113.6333,20.42,35,96,2.48,AU,1684281099
180,manokwari,-0.8667,134.0833,28.52,75,63,1.67,ID,1684281034
181,hwange,-18.3693,26.5019,17.65,64,5,1.35,ZW,1684281158
182,gobernador virasora,-28.05,-56.0333,14.17,78,0,2.48,AR,1684281158
183,peniche,39.3558,-9.3811,15.16,88,49,6.82,PT,1684280951
184,palikir - national government center,6.9248,158.1611,27.47,89,100,4.12,FM,1684281158
185,peruibe,-24.32,-46.9983,17.94,86,6,2.02,BR,1684281158
186,klyuchi,52.2667,79.1667,9.58,72,62,3.04,RU,1684280941
187,port blair,11.6667,92.75,26.02,94,20,1.03,IN,1684281159
188,villa juarez,24.6536,-107.5411,28.58,41,88,4.38,MX,1684281159
189,nar'yan-mar,67.6713,53.087,4.58,96,58,3.95,RU,1684281159
190,les avirons,-21.2418,55.3394,22.43,64,0,1.03,RE,1684281159
191,ugoofaaru,5.6667,73.0,28.86,75,95,5.57,MV,1684281159
192,new norfolk,-42.7826,147.0587,9.95,65,28,1.26,AU,1684281018
193,aasiaat,68.7098,-52.8699,-4.73,85,4,2.77,GL,1684281160
194,sechura,-5.5569,-80.8222,26.43,63,58,7.53,PE,1684281163
195,sitka,57.0531,-135.33,15.94,59,0,2.06,US,1684281067
196,namdrik,5.5994,168.1028,28.54,78,87,7.15,MH,1684281163
197,dalnegorsk,44.5604,135.5701,19.09,69,100,3.67,RU,1684281164
198,bontang,0.1333,117.5,25.67,84,67,2.31,ID,1684281164
199,vila franca do campo,37.7167,-25.4333,18.23,92,45,2.25,PT,1684281164
200,sisimiut,66.9395,-53.6735,0.83,73,76,6.73,GL,1684281026
201,yuzhno-kurilsk,44.0306,145.8556,9.77,80,91,1.04,RU,1684281164
202,wegorzewo,54.2157,21.7372,7.68,94,100,1.72,PL,1684281166
203,remire-montjoly,4.9167,-52.2667,23.02,100,100,0.0,GF,1684281166
204,gornopravdinsk,60.05,69.9,0.38,76,4,1.26,RU,1684281166
205,gamay,12.3854,125.2979,28.42,78,95,2.18,PH,1684281166
206,tadine,-21.55,167.8833,25.85,58,58,4.82,NC,1684281166
207,ust-nera,64.5667,143.2,4.68,90,100,2.43,RU,1684281039
208,santo antonio da platina,-23.295,-50.0772,14.58,71,0,1.85,BR,1684280974
209,galle,6.0367,80.217,26.95,87,91,2.62,LK,1684281167
210,nacala,-14.5428,40.6728,19.44,86,44,3.02,MZ,1684281167
211,itoman,26.1247,127.6694,25.21,70,75,6.17,JP,1684281167
212,kidal,18.4411,1.4078,30.68,5,71,5.34,ML,1684281168
213,polyarnyy,69.1989,33.4478,10.11,72,95,4.79,RU,1684281043
214,vila do maio,15.1333,-23.2167,23.44,79,31,7.07,CV,1684281006
215,uige,-7.6087,15.0613,19.89,98,75,1.24,AO,1684281168
216,stanley,54.868,-1.6985,9.29,92,75,1.54,GB,1684281057
217,shimoda,34.6667,138.95,22.2,66,0,1.57,JP,1684281168
218,irituia,-1.7711,-47.4381,23.82,98,100,1.26,BR,1684281168
219,esil,51.9556,66.4042,13.41,49,100,6.1,KZ,1684281169
220,haifa,32.8156,34.9892,29.05,53,55,0.75,IL,1684281169
221,ketchikan,55.3422,-131.6461,21.26,40,0,4.12,US,1684281169
222,mocajuba,-2.5842,-49.5072,24.18,96,100,1.13,BR,1684281169
223,haiku-pauwela,20.9219,-156.3051,28.01,48,40,6.17,US,1684281169
224,lesina,41.8594,15.3527,14.32,78,100,7.01,IT,1684281170
225,kone,-21.0595,164.8658,28.3,60,41,3.14,NC,1684281170
226,constantia,44.1833,28.65,13.38,83,99,4.19,RO,1684281170
227,sosnovo-ozerskoye,52.5249,111.5418,7.19,39,14,2.8,RU,1684281173
228,opuwo,-18.0607,13.84,13.53,48,17,1.85,NA,1684281173
229,dampit,-8.2116,112.7493,21.29,81,9,1.44,ID,1684281173
230,chibuto,-24.6867,33.5306,17.14,86,9,2.28,MZ,1684281003
231,labrador city,52.9463,-66.9114,-1.05,47,75,4.63,CA,1684281174
232,bridgewater,44.3835,-64.5155,15.62,62,100,6.69,CA,1684281174
233,paungde,18.4833,95.5,26.46,79,3,2.03,MM,1684281174
234,sovetskaya gavan',48.9723,140.2878,7.36,92,100,3.51,RU,1684281174
235,newman,37.3138,-121.0208,34.02,10,0,5.29,US,1684281174
236,bayville,40.9106,-73.5621,26.0,44,100,0.45,US,1684281175
237,cabo san lucas,22.8909,-109.9124,30.1,54,72,4.02,MX,1684280856
238,newtown,-33.8984,151.1775,16.21,75,20,10.8,AU,1684280881
239,bechar,31.6167,-2.2167,27.18,17,40,6.17,DZ,1684281175
240,praya,14.9215,-23.5087,23.3,73,20,6.69,CV,1684281175
241,holualoa,19.6228,-155.9522,25.91,76,40,5.66,US,1684280930
242,tambura,5.6,27.4667,21.59,91,100,0.86,SS,1684281176
243,port alfred,-33.5906,26.891,12.32,95,68,0.45,ZA,1684281176
244,dryden,49.7833,-92.7503,15.16,33,0,2.06,CA,1684281176
245,fort st. john,56.2499,-120.8529,20.94,24,40,3.6,CA,1684281158
246,cha-am,12.8,99.9667,30.03,78,20,0.0,TH,1684281176
247,kavaratti,10.5669,72.642,29.71,71,77,5.46,IN,1684281177
248,kristinestad,62.2743,21.376,11.72,99,95,4.02,FI,1684281177
249,nahiyat ash shinafiyah,31.5874,44.6602,25.84,16,4,2.87,IQ,1684281177
250,gebeit,21.0667,36.3167,26.23,65,2,1.75,SD,1684281177
251,ouesso,1.6136,16.0517,23.12,83,67,0.95,CG,1684281177
252,gold camp,33.2937,-111.3043,36.7,30,56,9.95,US,1684281177
253,la'ie,21.6477,-157.9253,27.98,75,42,1.34,US,1684281059
254,queenstown,-31.8976,26.8753,10.4,61,51,3.33,ZA,1684281178
255,turkmenbasy,40.0222,52.9552,14.43,82,0,5.14,TM,1684281080
256,atafu village,-8.5421,-172.5159,29.17,75,100,5.64,TK,1684281043
257,mehekar,20.15,76.5667,27.03,56,0,5.27,IN,1684281178
258,imuris,30.7833,-110.8667,30.36,23,48,7.42,MX,1684281179
259,bamboo flat,11.7,92.7167,26.05,94,20,1.03,IN,1684281180
260,leava,-14.3,-178.1667,26.33,84,100,4.52,WF,1684281180
261,burutu,5.3509,5.5076,26.8,86,100,2.63,NG,1684281180
262,brandon,27.9378,-82.2859,29.41,68,100,3.13,US,1684280939
263,ishigaki,24.3448,124.1572,23.07,100,75,5.14,JP,1684281184
264,carahue,-38.7,-73.1667,9.7,85,98,1.19,CL,1684281184
265,ovruch,51.3246,28.8035,13.3,87,95,2.18,UA,1684281184
266,ola,59.5833,151.2833,6.75,65,100,4.57,RU,1684281098
267,colonia,50.9333,6.95,9.41,80,0,1.54,DE,1684280829
268,abepura,-2.6333,140.5833,24.45,94,40,1.03,ID,1684281184
269,padang,-0.9492,100.3543,25.03,87,29,1.34,ID,1684281184
270,tazovsky,67.4667,78.7,-9.32,96,92,3.54,RU,1684281019
271,toliara,-23.35,43.6667,20.1,81,24,3.22,MG,1684281185
272,alice springs,-23.7,133.8833,13.75,58,0,1.54,AU,1684281033
273,enewetak,11.3474,162.3373,27.89,78,67,8.57,MH,1684280939
274,mossel bay,-34.1831,22.146,14.96,87,90,5.28,ZA,1684281050
275,shambu,9.5667,37.1,13.58,71,84,0.62,ET,1684281075
276,mahibadhoo,3.7833,72.9667,28.34,77,99,5.4,MV,1684281185
277,urbana,40.1106,-88.2073,23.38,54,0,7.2,US,1684281186
278,sola,-13.8833,167.55,27.62,79,64,8.07,VU,1684281186
279,dwarka,22.2394,68.9678,27.82,82,4,6.35,IN,1684281059
280,touros,-5.1989,-35.4608,25.35,86,56,3.61,BR,1684281186
281,stephenville,32.2207,-98.2023,25.07,54,0,2.57,US,1684281186
282,atar,20.5169,-13.0499,32.26,19,9,3.82,MR,1684281186
283,tual,-5.6667,132.75,27.95,79,48,7.21,ID,1684281187
284,vadso,70.0744,29.7487,9.49,87,96,4.12,NO,1684281187
285,bairnsdale,-37.8333,147.6167,11.14,81,77,1.41,AU,1684281187
286,balaipungut,1.05,101.2833,25.02,95,29,0.94,ID,1684281187
287,minas de marcona,-15.2119,-75.1103,15.24,84,22,4.87,PE,1684281187
288,international falls,48.6011,-93.411,19.52,37,0,4.12,US,1684281187
289,visby,57.6409,18.296,12.12,82,96,6.17,SE,1684281188
290,"laikit, laikit ii (dimembe)",1.4792,124.9735,23.47,94,40,1.54,ID,1684281188
291,laminusa,5.5549,120.9136,28.46,77,99,4.14,PH,1684281188
292,shingu,33.7333,135.9833,25.15,51,0,1.11,JP,1684281188
293,umluj,25.0213,37.2685,26.75,56,90,1.75,SA,1684281188
294,korpilahti,62.0167,25.55,11.3,98,100,3.19,FI,1684281188
295,namibe,-15.1961,12.1522,21.41,69,2,6.72,AO,1684281008
296,egilsstadir,65.2653,-14.3948,4.95,70,0,3.6,IS,1684281059
297,eureka,40.8021,-124.1637,19.55,81,29,2.68,US,1684280980
298,chegdomyn,51.1167,133.0167,10.42,59,75,1.94,RU,1684281189
299,arzgir,45.3728,44.2206,10.3,81,20,4.07,RU,1684281189
300,yima,34.7381,111.8839,23.55,49,1,1.17,CN,1684281189
301,sao jose da coroa grande,-8.8978,-35.1478,25.45,86,66,1.64,BR,1684281189
302,ribeira brava,32.65,-17.0667,19.28,74,36,4.01,PT,1684281190
303,frontera,26.9333,-101.45,24.62,63,83,1.34,MX,1684280950
304,walvis bay,-22.9575,14.5053,13.38,94,0,1.03,NA,1684281190
305,san luis,-33.295,-66.3356,19.15,56,0,3.99,AR,1684281128
306,banjarmasin,-3.3244,114.591,24.08,76,64,1.05,ID,1684281193
307,gizo,-8.103,156.8419,29.01,75,50,2.93,SB,1684281193
308,afaahiti,-17.75,-149.2833,28.93,77,57,2.47,PF,1684281194
309,mount isa,-20.7333,139.5,20.87,30,3,6.69,AU,1684281037
310,alaghsas,17.0187,8.0168,31.8,14,20,3.58,NE,1684281194
311,berezovyy,51.6667,135.7,14.04,46,88,1.34,RU,1684281194
312,thinadhoo,0.5333,72.9333,28.29,77,87,7.51,MV,1684281194
313,chornomors'k,46.305,30.6548,15.38,63,76,4.3,UA,1684281194
314,kaedi,16.1465,-13.5047,31.16,26,93,7.06,MR,1684281195
315,mejit,10.2753,170.8646,27.52,78,88,7.34,MH,1684281036
316,fisterra,42.9049,-9.2629,14.45,65,100,8.85,ES,1684281195
317,dudinka,69.4058,86.1778,-10.78,97,63,1.73,RU,1684280948
318,fauske,67.2588,15.3918,6.54,92,100,2.3,NO,1684281195
319,kapa'a,22.0752,-159.319,26.18,70,100,5.66,US,1684281035
320,floro,61.5996,5.0328,4.98,81,100,8.23,NO,1684281197
321,arraial do cabo,-22.9661,-42.0278,20.98,78,20,3.6,BR,1684281063
322,viqueque,-8.8673,126.3658,26.47,74,65,0.79,TL,1684281197
323,nantucket,41.2835,-70.0995,17.03,88,0,9.26,US,1684281125
324,las lomitas,-24.7096,-60.593,19.72,54,1,3.33,AR,1684281197
325,kirensk,57.7853,108.1119,5.67,58,93,2.66,RU,1684281048
326,juegang,32.3174,121.1855,20.46,78,100,10.45,CN,1684281197
327,sosnovyy bor,59.9,29.1167,11.17,89,91,5.97,RU,1684281198
328,batangafo,7.3008,18.2833,23.56,89,97,0.49,CF,1684281198
329,san juan de miraflores,-12.1629,-76.9635,22.32,79,88,4.69,PE,1684281198
330,hede,33.7681,120.2517,24.61,70,100,6.22,CN,1684281198
331,ta`u,-14.2336,-169.5144,27.54,77,95,6.34,AS,1684281198
332,villiers,-27.0303,28.6006,8.01,74,0,1.55,ZA,1684281198
333,mountain home,43.133,-115.6912,26.71,32,40,4.12,US,1684281199
334,lhasa,29.65,91.1,7.11,78,47,1.57,CN,1684281094
335,dalnerechensk,45.9339,133.7225,13.73,64,100,2.67,RU,1684281199
336,east ballina,-28.8667,153.5833,18.22,76,86,7.69,AU,1684281086
337,la pineda,41.0762,1.1852,17.4,64,37,3.13,ES,1684281199
338,kangding,30.0513,101.9603,11.81,93,100,1.45,CN,1684281200
339,mitu,1.1983,-70.1733,23.56,97,92,0.49,CO,1684281078
340,georgievka,49.3314,81.5761,10.67,55,42,1.48,KZ,1684281200
341,tralee,52.2704,-9.7026,7.36,88,66,0.62,IE,1684280953
342,hami,42.8,93.45,19.04,18,21,3.1,CN,1684281203
343,bulungu,-4.55,18.6,22.04,90,80,0.5,CD,1684281204
344,angaur state,6.906,134.13,28.47,77,98,4.14,PW,1684281204
345,olinda,-8.0089,-34.8553,26.85,78,75,2.57,BR,1684281204
346,upata,8.0086,-62.3989,26.22,84,96,1.72,VE,1684281204
347,akureyri,65.6835,-18.0878,7.96,66,40,5.14,IS,1684281009
348,suva,-18.1416,178.4415,28.71,65,75,5.14,FJ,1684281205
349,vernon,50.2581,-119.2691,30.52,42,15,2.68,CA,1684281205
350,pisco,-13.7,-76.2167,22.03,73,0,7.2,PE,1684281205
351,pandan,14.0453,124.1694,29.06,76,100,2.64,PH,1684281205
352,mildura,-34.2,142.15,8.37,79,0,4.9,AU,1684281206
353,chita,52.0333,113.55,4.94,36,10,1.0,RU,1684281206
354,majie,25.0333,102.6361,13.99,72,0,5.0,CN,1684281206
355,matoury,4.8483,-52.3317,22.98,100,100,0.0,GF,1684280948
356,guia lopes da laguna,-21.4578,-56.1142,16.39,71,0,1.64,BR,1684281206
357,saint-just-en-chaussee,49.505,2.4329,8.94,87,49,2.96,FR,1684281207
358,saint-philippe,-21.3585,55.7679,23.77,79,7,2.9,RE,1684281207
359,hoemul-li,41.4339,129.67,16.93,65,72,1.75,KP,1684281208
360,portarlington,53.1622,-7.1911,9.55,86,80,1.66,IE,1684281208
361,kill devil hills,36.0307,-75.676,23.32,74,0,9.26,US,1684281209
362,saint-flour,45.0833,3.0,3.52,90,62,5.44,FR,1684281209
363,pickering,43.9001,-79.1329,16.58,52,0,8.23,CA,1684281134
364,rengasdengklok,-6.1592,107.2981,26.07,82,20,2.59,ID,1684281209
365,vorgashor,67.5833,63.95,-6.4,87,94,2.32,RU,1684281058
366,nuuk,64.1835,-51.7216,2.34,100,100,5.14,GL,1684281209
367,nadi,-17.8,177.4167,29.0,58,40,3.6,FJ,1684281210
368,conduaga,8.862,117.4893,28.51,77,100,1.75,PH,1684281210
369,harstad,68.799,16.5293,6.56,97,100,3.13,NO,1684281210
370,krasnovishersk,60.4078,57.082,8.97,76,74,0.97,RU,1684281210
371,itanhem,-17.1664,-40.33,21.07,97,24,2.3,BR,1684281213
372,suklayin,15.7574,121.5503,29.97,72,99,1.46,PH,1684281214
373,acajutla,13.5928,-89.8275,28.44,73,98,1.05,SV,1684281214
374,fort wellington,6.4,-57.6,25.77,89,63,4.03,GY,1684281215
375,santiago de cao,-7.9589,-79.2392,24.07,78,72,3.6,PE,1684281215
376,pahrump,36.2083,-115.9839,34.03,18,80,2.68,US,1684280843
377,cabedelo,-6.9811,-34.8339,26.37,84,88,3.44,BR,1684281215
378,kovdor,67.5662,30.4758,10.47,73,100,2.27,RU,1684281096
379,marsh harbour,26.5412,-77.0636,25.02,77,18,3.46,BS,1684281039
380,hluti,-27.2167,31.6167,12.8,86,2,1.93,SZ,1684281215
381,candelaria,13.9311,121.4233,28.73,77,100,1.8,PH,1684281216
382,mahanoro,-19.9,48.8,22.22,92,9,3.23,MG,1684281216
383,borba,-4.3878,-59.5939,24.3,97,100,0.76,BR,1684281217
384,lompoc,34.6391,-120.4579,25.99,82,100,4.47,US,1684281027
385,lefka,35.1106,32.8506,21.79,44,89,0.79,CY,1684281217
386,greenville,35.6127,-77.3663,28.09,65,75,3.6,US,1684280900
387,pedra branca,-5.4542,-39.7172,21.73,81,50,0.96,BR,1684281218
388,paripiranga,-10.6875,-37.8617,21.1,94,99,2.48,BR,1684281218
389,manaure,11.7751,-72.4445,27.59,80,77,4.42,CO,1684281218
390,kyelang,32.5833,77.0333,-4.41,73,19,3.18,IN,1684281218
391,tidjikja,18.5564,-11.4271,31.27,30,98,3.5,MR,1684281218
392,lebu,-37.6167,-73.65,11.94,78,99,6.26,CL,1684281014
393,kerikeri,-35.2268,173.9474,19.39,70,8,0.45,NZ,1684281078
394,wewak,-3.5534,143.6268,25.25,93,100,1.95,PG,1684281219
395,khouribga,32.9333,-6.6,13.15,80,100,2.2,MA,1684281219
396,alta sierra,35.7291,-118.5495,24.33,29,58,5.16,US,1684281219
397,howard springs,-12.497,131.047,26.6,67,66,6.2,AU,1684281019
398,luwuk,-0.9516,122.7875,24.84,95,100,0.58,ID,1684281219
399,san matias,-16.3667,-58.4,20.4,67,0,0.71,BO,1684281219
400,grebenskaya,43.5317,46.3733,11.56,95,98,3.33,RU,1684281219
401,fairbanks,64.8378,-147.7164,20.98,24,75,4.63,US,1684281054
402,nova sintra,14.8667,-24.7167,20.29,76,12,7.76,CV,1684281067
403,flying fish cove,-10.4217,105.6791,25.82,78,100,3.6,CX,1684281099
404,salinopolis,-0.6136,-47.3561,26.87,84,81,4.45,BR,1684280934
405,magadan,59.5667,150.8,6.41,66,98,5.5,RU,1684280862
406,namie,37.4833,141.0,25.4,68,2,0.45,JP,1684281223
407,mingshui,36.7167,117.5,26.45,46,57,4.35,CN,1684281223
408,tsiombe,-25.3,45.4833,17.95,85,2,1.71,MG,1684281056
409,portland,45.5234,-122.6762,30.52,43,75,3.6,US,1684281009
410,brixham,50.3943,-3.5159,11.02,80,7,1.34,GB,1684281224
411,kurayoshi,35.4333,133.8167,22.95,47,0,2.06,JP,1684281224
412,lihue,21.9789,-159.3672,25.77,70,100,5.66,US,1684280716
413,tindouf,27.6711,-8.1474,22.25,46,20,7.2,DZ,1684281085
414,veraval,20.9,70.3667,27.6,82,1,4.7,IN,1684280974
415,puerto baquerizo moreno,-0.9,-89.6,25.5,77,84,4.83,EC,1684281045
416,nikolayevsk-on-amure,53.1406,140.73,9.06,89,100,2.38,RU,1684281225
417,gelemso,8.8167,40.5167,16.88,83,77,2.36,ET,1684281225
418,golbey,48.1976,6.4397,7.0,90,75,3.06,FR,1684281225
419,leiyang,26.4024,112.8591,24.82,87,36,2.62,CN,1684281225
420,tongliao,43.6125,122.2653,16.68,19,100,2.08,CN,1684281226
421,kruisfontein,-34.0033,24.7314,9.94,92,57,4.27,ZA,1684281226
422,zhezqazghan,47.7833,67.7667,14.32,28,75,7.0,KZ,1684281226
423,mahina,-17.5065,-149.489,29.87,66,20,4.12,PF,1684281226
424,tamanrasset,22.785,5.5228,18.95,7,0,1.03,DZ,1684281227
425,sault ste. marie,46.5168,-84.3333,13.16,39,0,8.23,CA,1684281014
426,tawau,4.2498,117.8871,25.07,84,78,1.81,MY,1684281227
427,cidreira,-30.1811,-50.2056,17.85,74,35,2.98,BR,1684281100
428,okhotsk,59.3833,143.3,1.8,96,100,9.72,RU,1684281227
429,kos,36.8933,27.2889,21.69,78,87,3.2,GR,1684281227
430,kurumkan,54.3,110.3,6.94,50,98,0.95,RU,1684281228
431,auki,-8.7676,160.7034,29.74,70,57,0.49,SB,1684281228
432,la rioja,42.25,-2.5,4.88,77,100,1.89,ES,1684281228
433,acapulco de juarez,16.8634,-99.8901,31.9,62,0,4.12,MX,1684281038
434,luderitz,-26.6481,15.1594,13.28,77,0,1.75,NA,1684281064
435,brezina,33.0989,1.2608,20.17,26,90,4.02,DZ,1684281228
436,beloyarskiy,63.7119,66.6722,0.51,77,46,1.67,RU,1684281229
437,mata-utu,-13.2816,-176.1745,27.05,78,99,2.78,WF,1684281229
438,barclayville,4.6797,-8.2339,25.49,90,100,0.4,LR,1684281229
439,al kharijah,25.4514,30.5464,27.46,16,0,3.08,EG,1684281047
440,freetown,8.484,-13.2299,26.86,83,83,2.11,SL,1684281181
441,melfort,52.8667,-104.6177,28.07,20,100,4.12,CA,1684281230
442,hotan,37.0997,79.9269,21.4,16,1,3.8,CN,1684281028
443,barkot,30.8167,78.2,17.19,37,14,2.61,IN,1684281233
444,pizarro,4.9533,-77.366,25.11,90,100,0.33,CO,1684281077
445,pointe michel,15.25,-61.3833,27.16,79,91,5.63,DM,1684281234
446,hammerfest,70.6634,23.6821,7.25,87,75,1.03,NO,1684281234
447,yeppoon,-23.1333,150.7333,21.88,48,0,3.76,AU,1684281234
448,port augusta,-32.5,137.7667,14.77,61,98,1.78,AU,1684281234
449,souillac,-20.5167,57.5167,23.21,88,20,1.54,MU,1684281234
450,kingston,17.997,-76.7936,28.53,79,40,3.09,JM,1684281235
451,christchurch,-43.5333,172.6333,16.38,68,15,2.57,NZ,1684280528
452,tete,-16.1564,33.5867,17.05,93,0,0.0,MZ,1684281240
453,maracas,-13.4411,-40.4308,18.16,92,99,1.84,BR,1684281240
454,harper,4.375,-7.7169,26.21,85,99,1.11,LR,1684281243
455,dakhla,23.6848,-15.958,18.42,87,0,10.03,EH,1684281244
456,new plymouth,-39.0667,174.0833,17.67,100,69,4.37,NZ,1684281244
457,mauganj,24.6833,81.8833,31.12,19,40,0.78,IN,1684281244
458,dompu,-8.5356,118.4622,24.14,82,17,1.12,ID,1684281245
459,port lincoln,-34.7333,135.8667,14.02,60,96,3.78,AU,1684281024
460,porto velho,-8.7619,-63.9039,27.03,78,20,0.0,BR,1684281181
461,hennenman,-27.9765,27.0242,9.1,55,0,1.44,ZA,1684281245
462,kulhudhuffushi,6.6221,73.07,29.06,75,97,5.45,MV,1684281246
463,happy valley-goose bay,53.3168,-60.3315,3.17,81,75,4.63,CA,1684281017
464,zaragoza,41.6561,-0.8773,12.79,54,0,9.26,ES,1684281247
465,alofi,-19.0595,-169.9187,24.94,78,75,3.6,NU,1684281247
466,prince rupert,54.3161,-130.3201,17.05,74,0,5.14,CA,1684281248
467,chernyshevskiy,63.0128,112.4714,0.91,99,73,1.72,RU,1684281248
468,vorkuta,67.5,64.0,-6.32,87,92,1.93,RU,1684281248
469,micheweni,-4.9667,39.8333,25.94,84,45,5.44,TZ,1684281248
470,geraldton,-28.7667,114.6,15.23,51,90,4.12,AU,1684281079
471,sumter,28.7086,-82.0831,29.43,63,57,3.63,US,1684281249
472,sao felix do xingu,-6.6447,-51.995,23.2,99,100,0.77,BR,1684281249
473,magadi,12.9667,77.2333,24.58,47,57,0.73,IN,1684281249
474,kununurra,-15.7667,128.7333,23.99,46,11,3.6,AU,1684281094
475,san sebastian de la gomera,28.0916,-17.1133,21.2,64,0,6.69,ES,1684281098
476,apolinario saravia,-24.4328,-63.9954,20.57,61,41,2.2,AR,1684281250
477,caleta olivia,-46.4393,-67.5281,13.14,40,93,12.11,AR,1684281253
478,nova vicosa,-17.8919,-39.3719,21.4,97,43,0.6,BR,1684280866
479,yanji,42.9075,129.5078,18.57,83,100,0.35,CN,1684281254
480,pijijiapan,15.7011,-93.23,30.63,64,20,1.59,MX,1684280984
481,sakata,38.9167,139.855,20.1,68,0,4.12,JP,1684281254
482,taltal,-25.4,-70.4833,17.52,83,95,0.09,CL,1684281034
483,villa gesell,-37.2639,-56.973,16.7,82,3,5.43,AR,1684281096
484,nizhnyaya poyma,56.1622,97.1933,6.65,86,98,3.37,RU,1684281255
485,wenchang,30.904,118.4887,21.32,89,100,1.53,CN,1684281255
486,lyozna,55.0249,30.7956,9.4,96,94,3.37,BY,1684281255
487,sakakah,29.9697,40.2064,25.76,18,3,4.53,SA,1684281255
488,sosnogorsk,63.6023,53.8817,10.34,80,93,1.53,RU,1684281256
489,lashio,22.9333,97.75,18.93,91,47,0.11,MM,1684281256
490,saint-tropez,43.2693,6.6398,17.12,55,100,3.99,FR,1684281256
491,ratzeburg,53.7,10.7667,9.71,82,100,6.69,DE,1684281256
492,carutapera,-1.195,-46.02,25.15,94,94,2.56,BR,1684281257
493,tenno,39.9,139.9667,17.56,65,30,7.37,JP,1684281257
494,jianshui,23.6363,102.8264,19.81,78,3,2.3,CN,1684281257
495,corinto,37.9407,22.9573,16.05,82,16,4.47,GR,1684281257
496,mili,6.0815,171.735,28.35,78,46,6.32,MH,1684281258
497,dhidhdhoo,6.8833,73.1,29.19,75,100,5.16,MV,1684281258
498,topolobampo,25.6,-109.05,26.93,48,72,5.02,MX,1684281258
499,aur,8.1499,171.1687,27.93,79,92,6.45,MH,1684281259
500,al jawf,29.5,38.75,25.91,15,34,9.68,SA,1684281259
501,tchintabaraden,15.8969,5.7985,32.33,13,36,2.17,NE,1684281260
502,kenora,49.8167,-94.4337,18.54,32,75,2.57,CA,1684281263
503,zhaotong,27.3167,103.7167,15.23,86,60,2.27,CN,1684281264
504,bac lieu,9.285,105.7244,29.12,75,42,3.81,VN,1684281264
505,khanty-mansiysk,61.0042,69.0019,-0.94,80,0,0.0,RU,1684281264
506,aginskoye,51.1,114.53,9.8,33,4,4.69,RU,1684281264
507,campos,-21.75,-41.3,22.03,60,0,4.12,BR,1684281265
508,karungdong,5.8844,121.263,28.85,73,87,1.87,PH,1684281265
509,piti village,13.4626,144.6933,30.73,76,20,6.17,GU,1684281265
510,chirpan,42.2,25.3333,15.8,91,100,4.18,BG,1684281266
511,praia,14.9215,-23.5087,23.3,73,20,6.69,CV,1684281266
512,nalut,30.3333,10.85,18.81,27,0,3.43,LY,1684281267
513,papao,-17.75,-149.55,29.82,72,52,2.65,PF,1684281267
514,galliano,29.4422,-90.2992,31.0,55,0,4.12,US,1684281268
515,ponta delgada,37.7333,-25.6667,18.4,82,20,3.09,PT,1684281268
516,revda,56.801,59.9303,8.6,66,99,2.27,RU,1684281268
517,el alto,-4.2714,-81.2147,25.81,77,45,4.11,PE,1684281268
518,camarinas,43.1311,-9.1817,14.54,68,100,10.29,ES,1684281269
519,jalai nur,49.45,117.7,12.64,25,11,7.36,CN,1684281269
520,saint-pierre,-21.3393,55.4781,24.2,64,0,1.03,RE,1684281269
521,laughlin,35.1678,-114.573,38.84,17,75,5.36,US,1684281269
522,bethanie,-26.4833,17.15,15.05,50,8,1.52,NA,1684281269
523,nizhniy odes,63.6445,54.856,9.94,86,96,1.84,RU,1684281270
524,puerto armuelles,8.2833,-82.8667,29.99,82,99,1.73,PA,1684281273
525,i-n-salah,27.1935,2.4607,25.33,13,1,3.65,DZ,1684281273
526,lerwick,60.1545,-1.1494,6.0,64,94,5.32,GB,1684281018
527,chateaubelair,13.2833,-61.25,26.29,83,75,5.14,VC,1684281274
528,nizhneangarsk,55.7833,109.55,2.71,69,99,0.61,RU,1684281274
529,akaa,61.1667,23.8667,12.18,95,96,3.34,FI,1684281274
530,praia da vitoria,38.7333,-27.0667,20.14,88,75,2.72,PT,1684281009
531,guatire,10.4762,-66.5427,24.05,97,98,0.98,VE,1684281274
532,sao joao da barra,-21.6403,-41.0511,22.05,66,0,8.45,BR,1684281274
533,turtas,58.9417,69.1325,1.23,70,0,1.27,RU,1684281275
534,kuta,-8.7233,115.1723,25.0,83,20,0.51,ID,1684281275
535,filiatra,37.15,21.5833,15.94,83,2,1.82,GR,1684281275
536,merizo village,13.2658,144.6691,30.55,79,70,6.31,GU,1684281275
537,cambridge,43.3601,-80.3127,17.66,54,40,6.17,CA,1684281190
538,hashtpar,37.8008,48.9037,15.6,61,0,2.23,IR,1684281276
539,antonio enes,-16.2325,39.9086,22.05,83,26,2.71,MZ,1684281276
540,khandyga,62.6667,135.6,12.85,41,86,2.81,RU,1684281276
541,windhoek,-22.5594,17.0832,12.11,79,4,2.06,NA,1684281276
542,sinop,41.7711,34.8709,13.31,80,36,3.08,TR,1684281276
543,knyaze-volkonskoye,48.4642,135.4567,14.19,57,49,4.34,RU,1684281277
544,verkhnevilyuysk,63.4453,120.3167,7.01,73,100,1.64,RU,1684281277
545,pokrovsk,48.282,37.1758,10.62,75,59,3.01,UA,1684281277
546,macapa,0.0389,-51.0664,28.99,89,20,2.57,BR,1684281277
547,manicore,-5.8092,-61.3003,23.94,96,100,0.35,BR,1684281277
548,montmagny,48.9734,2.3469,10.55,81,0,3.6,FR,1684281277
549,six-fours-les-plages,43.0938,5.84,16.92,66,89,1.34,FR,1684281278
